[
  {
    "title": "Clínica da Família Álvaro Difini",
    "address": "R. Álvaro Difini, 520 – Restinga",
    "phone": "(51) 4076-5011",
    "schedule": "De seg a sex das 8h às 17h",
    "doses": "2ª dose - Pfizer / 2ª dose - AstraZeneca / 2ª dose - Coronavac / 1ª dose / Dose de Reforço",
    "coordinate": {
      "latitude": -30.1486938,
      "longitude": -51.1460164
    }
  },
  {
    "title": "Unidade de Saúde Assis Brasil",
    "address": "Av. Assis Brasil, 6615 – Sarandi",
    "phone": "(51) 3364-2744",
    "schedule": "De seg a sex das 8h às 17h",
    "doses": "2ª dose - Pfizer / 2ª dose - AstraZeneca / 2ª dose - Coronavac / 1ª dose / Dose de Reforço",
    "coordinate": {
      "latitude": -29.993521,
      "longitude": -51.128496
    }
  },
  {
    "title": "Unidade de Saúde Bananeiras",
    "address": "Av. Coronel Aparício Borges, 2494 – Coronel Aparício Borges",
    "phone": "(51) 3336-3284",
    "schedule": "De seg a sex das 8h às 17h",
    "doses": "2ª dose - Coronavac / 1ª dose / Dose de Reforço",
    "coordinate": {
      "latitude": -30.0652783,
      "longitude": 51.1889567
    }
  },
  {
    "title": "Unidade de Saúde Barão de Bagé",
    "address": "R. Araruama, 487 – Vila Jardim",
    "phone": "(51) 3334-7196",
    "schedule": "De seg a sex das 8h às 17h",
    "doses": "2ª dose - Pfizer / 1ª dose / Dose de Reforço",
    "coordinate": {
      "latitude": -30.035377,
      "longitude": -51.1597764
    }
  },
  {
    "title": "Unidade de Saúde Belém Novo",
    "address": "R. Florêncio Farias,195 – Belém Novo",
    "phone": "(51) 3289-5724",
    "schedule": "De seg a sex das 8h às 21h",
    "doses": "2ª dose - Pfizer / 2ª dose - Coronavac / 1ª dose / Dose de Reforço",
    "coordinate": {
      "latitude": -30.2108293,
      "longitude": -51.1808507
    }
  },
  {
    "title": "Unidade de Saúde Camaquã",
    "address": "R. Prof. Dr. João Pitta Pinheiro Filho, 176 – Camaquã",
    "phone": "(51) 3289-5500",
    "schedule": "De seg a sex das 8h às 17h",
    "doses": "2ª dose - Pfizer / 2ª dose - Coronavac / 1ª dose / Dose de Reforço",
    "coordinate": {
      "latitude": -30.1081386,
      "longitude": -51.2375116
    }
  },
  {
    "title": "Unidade de Saúde Chácara da Fumaça",
    "address": "Av. Estr. Martim Félix Berta, 2432 – Mário Quintana",
    "phone": "(51) 3386-1166",
    "schedule": "De seg a sex das 8h às 17h",
    "doses": "2ª dose - Pfizer / 1ª dose / Dose de Reforço",
    "coordinate": {
      "latitude": -30.0321013,
      "longitude": -51.1155367
    }
  },
  {
    "title": "Unidade de Saúde Cristal",
    "address": "R. Cruzeiro do Sul, 2702 - Santa Tereza",
    "phone": "(51) 32895714",
    "schedule": "De seg a sex das 8h às 17h",
    "doses": "2ª dose - Pfizer / 1ª dose / Dose de Reforço",
    "coordinate": {
      "latitude": -30.0844965,
      "longitude": -51.2324896
    }
  },
  {
    "title": "Unidade de Saúde Glória",
    "address": "Av. Professor Oscar Pereira, 3229 - Glória",
    "phone": "(51) 3289-8189",
    "schedule": "De seg a sex das 8h às 17h",
    "doses": "2ª dose - Pfizer / 2ª dose - Coronavac / 1ª dose / Dose de Reforço",
    "coordinate": {
      "latitude": -30.0781596,
      "longitude": -51.2018338
    }
  },
  {
    "title": "Clínica da Família IAPI",
    "address": "R. Três de Abril, 90 – Passo d'Areia",
    "phone": "(51) 3289-3411",
    "schedule": "De seg a sex das 8h às 17h",
    "doses": "2ª dose - Pfizer / 2ª dose - AstraZeneca / 2ª dose - Coronavac / 1ª dose / Dose de Reforço",
    "coordinate": {
      "latitude": -30.0146298,
      "longitude": -51.1800658
    }
  },
  {
    "title": "Unidade de Saúde Ilha da Pintada",
    "address": "Av. Pres. Castelo Branco, 390 – Arquipélago",
    "phone": "(51) 3211-7582",
    "schedule": "De seg a sex das 8h às 17h",
    "doses": "2ª dose - Pfizer / 1ª dose / Dose de Reforço",
    "coordinate": {
      "latitude": -30.0278543,
      "longitude": -51.2559171
    }
  },
  {
    "title": "Unidade de Saúde Jardim Leopoldina",
    "address": "R. Orlando Aita, 130 – Rubem Berta",
    "phone": "(51) 3348-7070",
    "schedule": "De seg a sex das 8h às 17h",
    "doses": "2ª dose - Pfizer / 1ª dose / Dose de Reforço",
    "coordinate": {
      "latitude": -30.0184503,
      "longitude": -51.1134702
    }
  },
  {
    "title": "Unidade de Saúde Lami",
    "address": "R. Nova Olinda, 202 Bairro - Lami",
    "phone": "(51) 3289-2687",
    "schedule": "De seg a sex das 8h às 17h",
    "doses": "1ª dose / Dose de Reforço",
    "coordinate": {
      "latitude": -30.2387027,
      "longitude": -51.0902431
    }
  },
  {
    "title": "Unidade de Saúde Mato Sampaio",
    "address": "R. Jayr Amauy Koebe, 90 – Jardim do Salso",
    "phone": "(51) 3289-5784",
    "schedule": "De seg a sex das 8h às 19h",
    "doses": "2ª dose - Pfizer / 1ª dose / Dose de Reforço",
    "coordinate": {
      "latitude": -30.0514547,
      "longitude": -51.1667737
    }
  },
  {
    "title": "Unidade de Saúde Moab Caldas",
    "address": "Av. Moab Caldas, 400 – Santa Tereza",
    "phone": "(51) 3289-4070",
    "schedule": "De seg a sex das 8h às 17h",
    "doses": "2ª dose - Pfizer / 2ª dose - AstraZeneca / 2ª dose - Coronavac / 1ª dose / Dose de Reforço",
    "coordinate": {
      "latitude": -30.069148,
      "longitude": -51.2182592
    }
  },
  {
    "title": "Unidade de Saúde Morro Santana",
    "address": "R. Marieta Menna Barreto, 210 – Protásio Alves",
    "phone": "(51) 3289-5696",
    "schedule": "De seg a sex das 8h às 21h",
    "doses": "2ª dose - Pfizer / 2ª dose - AstraZeneca / 2ª dose - Coronavac / 1ª dose / Dose de Reforço",
    "coordinate": {
      "latitude": -30.0391245,
      "longitude": -51.1304197
    }
  },
  {
    "title": "Unidade de Saúde Navegantes",
    "address": "Av. Pres. Franklin Roosevelt, 5 – Navegantes",
    "phone": "(51) 3289-8235",
    "schedule": "De seg a sex das 8h às 17h",
    "doses": "2ª dose - Pfizer / 1ª dose / Dose de Reforço",
    "coordinate": {
      "latitude": -30.0001393,
      "longitude": -51.2022416
    }
  },
  {
    "title": "Unidade de Saúde Nossa Sra de Belém",
    "address": "R. João do Couto, 294 – Belém Velho",
    "phone": "(51) 3289-5582",
    "schedule": "De seg a sex das 8h às 17h",
    "doses": "2ª dose - Pfizer / Dose de Reforço",
    "coordinate": {
      "latitude": -30.1155729,
      "longitude": -51.1816586
    }
  },
  {
    "title": "Unidade de Saúde Panorama",
    "address": "R. Rômulo da Silva Pinheiro, S/N – Lomba do Pinheiro",
    "phone": "(51) 3289-8223",
    "schedule": "De seg a sex das 8h às 17h",
    "doses": "2ª dose - Pfizer / 2ª dose - Coronavac / 1ª dose / Dose de Reforço",
    "coordinate": {
      "latitude": -30.1173153,
      "longitude": -51.1043697
    }
  },
  {
    "title": "Unidade de Saúde Parque dos Maias",
    "address": "R. Francisco Galecki, 165 – Rubem Berta",
    "phone": "(51) 3338-0188",
    "schedule": "De seg a sex das 8h às 17h",
    "doses": "2ª dose - Pfizer / 1ª dose / Dose de Reforço",
    "coordinate": {
      "latitude": -30.004542,
      "longitude": -51.0991913
    }
  },
  {
    "title": "Unidade de Saúde Passo das Pedras I",
    "address": "Av. Gomes de Carvalho, 510 – Passo das Pedras",
    "phone": "(51) 3348-8686",
    "schedule": "De seg a sex das 8h às 17h",
    "doses": "2ª dose - Pfizer / 1ª dose / Dose de Reforço",
    "coordinate": {
      "latitude": -30.016865,
      "longitude": -51.1288336
    }
  },
  {
    "title": "Unidade de Saúde Primeiro de Maio",
    "address": "Av. Prof. Oscar Pereira, 6199 – Cascata",
    "phone": "(51) 3289-5676",
    "schedule": "De seg a sex das 8h às 21h",
    "doses": "2ª dose - Pfizer / 1ª dose / Dose de Reforço",
    "coordinate": {
      "latitude": -30.0952073,
      "longitude": -51.1806112
    }
  },
  {
    "title": "Unidade de Saúde Ramos",
    "address": "R. K esquina R. C, s/n – Rubem Berta",
    "phone": "(51) 3389-5602",
    "schedule": "De seg a sex das 8h às 17h",
    "doses": "2ª dose - Pfizer / 2ª dose - Coronavac / 1ª dose / Dose de Reforço",
    "coordinate": {
      "latitude": -29.9940493,
      "longitude": -51.1079327
    }
  },
  {
    "title": "Unidade de Saúde Rubem Berta",
    "address": "R. Wolfram Metzler, 675 - Rubem Berta",
    "phone": "(51) 3366-2811",
    "schedule": "De seg a sex das 8h às 17h",
    "doses": "2ª dose - Pfizer / 2ª dose - Coronavac / 1ª dose / Dose de Reforço",
    "coordinate": {
      "latitude": -30.0244953,
      "longitude": -51.1051157
    }
  },
  {
    "title": "Unidade de Saúde Santa Cecília",
    "address": "R. São Manoel, 543 – Santa Cecilia",
    "phone": "(51) 3359-8685",
    "schedule": "De seg a sex das 8h às 17h",
    "doses": "2ª dose - Pfizer / 2ª dose - Coronavac / 1ª dose / Dose de Reforço",
    "coordinate": {
      "latitude": -30.0386483,
      "longitude": -51.2073197
    }
  },
  {
    "title": "Unidade de Saúde Santa Marta",
    "address": "R. Cap. Montanha, 27 - 1° andar – Centro Histórico",
    "phone": "(51) 3289-2935",
    "schedule": "De seg a sex das 8h às 17h",
    "doses": "2ª dose - Pfizer / 2ª dose - AstraZeneca / 2ª dose - Coronavac / 1ª dose / Dose de Reforço",
    "coordinate": {
      "latitude": -30.0285448,
      "longitude": -51.2346579
    }
  },
  {
    "title": "Unidade de Saúde Santo Alfredo",
    "address": "R. Santo Alfredo, 37 – São José",
    "phone": "(51) 3319-4949",
    "schedule": "De seg a sex das 8h às 17h",
    "doses": "2ª dose - Pfizer / 1ª dose / Dose de Reforço",
    "coordinate": {
      "latitude": -30.0623425,
      "longitude": -51.1684169
    }
  },
  {
    "title": "Unidade de Saúde São Carlos",
    "address": "Av. Bento Gonçalves, 6670 – Partenon",
    "phone": "(51) 3289-5525",
    "schedule": "De seg a sex das 8h às 21h",
    "doses": "2ª dose - Pfizer / 2ª dose - AstraZeneca / 2ª dose - Coronavac / 1ª dose",
    "coordinate": {
      "latitude": -30.0657235,
      "longitude": -51.152656
    }
  },
  {
    "title": "Unidade de Saúde São Cristóvão",
    "address": "R. Coronel Ricardo Leal Kelleter, 137 – Rubem Berta",
    "phone": "(51) 3366-3872",
    "schedule": "De seg a sex das 8h às 17h",
    "doses": "2ª dose - Pfizer / 1ª dose / Dose de Reforço",
    "coordinate": {
      "latitude": -30.0144742,
      "longitude": -51.0997312
    }
  },
  {
    "title": "Unidade de Saúde Sarandi",
    "address": "R. Francisco Pinto da Fontoura, 341 – Sarandi",
    "phone": "(51) 3365-3177",
    "schedule": "De seg a sex das 8h às 17h",
    "doses": "2ª dose - Pfizer / 1ª dose / Dose de Reforço",
    "coordinate": {
      "latitude": -29.9948893,
      "longitude": -51.1363437
    }
  },
  {
    "title": "Unidade de Saúde Tristeza",
    "address": "Av. Wenceslau Escobar, 2442 – Tristeza",
    "phone": "(51) 3289-5764",
    "schedule": "De seg a sex das 8h às 21h",
    "doses": "2ª dose - Pfizer / 2ª dose - AstraZeneca / 1ª dose / Dose de Reforço",
    "coordinate": {
      "latitude": -30.1111281,
      "longitude": -51.2568112
    }
  },
  {
    "title": "Unidade de Saúde Vila Ipiranga",
    "address": "R. Alberto Silva, 1830 – Vila Ipiranga",
    "phone": "(51) 3289-5670",
    "schedule": "De seg a sex das 8h às 17h",
    "doses": "2ª dose - Pfizer / 1ª dose / Dose de Reforço",
    "coordinate": {
      "latitude": -30.0270685,
      "longitude": -51.1514087
    }
  },
  {
    "title": "Unidade de Saúde Vila Jardim",
    "address": "R. Nazareth, 570 - Bom Jesus",
    "phone": "(51) 3289-5735",
    "schedule": "De seg a sex das 8h às 17h",
    "doses": "1ª dose / Dose de Reforço",
    "coordinate": {
      "latitude": -30.0460453,
      "longitude": -51.1657857
    }
  },
  {
    "title": "Shopping João Pessoa",
    "address": "Av. João Pessoa, 1831 - Farroupilha",
    "phone": "-",
    "schedule": "De seg a sex das 9h às 21h",
    "doses": "2ª dose - Pfizer / 2ª dose - AstraZeneca / 2ª dose - Coronavac / 1ª dose / Dose de Reforço",
    "coordinate": {
      "latitude": -30.0458549,
      "longitude": -51.2152264
    }
  },
  {
    "title": "Largo Glênio Peres",
    "address": "Centro Histórico",
    "phone": "",
    "schedule": "De seg a sex das 12h às 18h",
    "doses": "2ª dose - Pfizer / 2ª dose - AstraZeneca / 2ª dose - Coronavac / 1ª dose / Dose de Reforço",
    "coordinate": {
      "latitude": -30.0279623,
      "longitude": -51.2298485
    }
  },
  {
    "title": "Agafarma",
    "address": "R. Dr. Pereira Neto, 830",
    "phone": "-",
    "schedule": "De seg a sex das 9h às 17h",
    "doses": "2ª dose - Pfizer / 1ª dose / Dose de Reforço",
    "coordinate": {
      "latitude": -30.1094568,
      "longitude": -51.2463782
    }
  },
  {
    "title": "São João",
    "address": "Av. Monte Cristo, 406 - Vila Nova",
    "phone": "-",
    "schedule": "De seg a sex das 8h às 17h",
    "doses": "2ª dose - Pfizer / 1ª dose / Dose de Reforço",
    "coordinate": {
      "latitude": -30.1195433,
      "longitude": -51.2148702
    }
  },
  {
    "title": "São João",
    "address": "R. Dona Adda Mascarenhas de Moraes, 299 - Jardim Itu Sabará",
    "phone": "-",
    "schedule": "De seg a sex das 9h às 17h",
    "doses": "2ª dose Pfizer / 1ª dose / Dose de Reforço",
    "coordinate": {
      "latitude": -30.0130441,
      "longitude": -51.138083
    }
  },
  {
    "title": "São João",
    "address": "Av. Osvaldo Aranha, 1300 - Bom Fim",
    "phone": "-",
    "schedule": "De seg a sex das 9h às 17h",
    "doses": "2ª dose Pfizer / 1ª dose / Dose de Reforço",
    "coordinate": {
      "latitude": -30.0357631,
      "longitude": -51.2127202
    }
  },
  {
    "title": "São João",
    "address": "Av. Wesceslau Escobar, 2409 - Cristal",
    "phone": "-",
    "schedule": "De seg a sex das 9h às 17h",
    "doses": "2ª dose Pfizer / 1ª dose / Dose de Reforço",
    "coordinate": {
      "latitude": -30.109786,
      "longitude": -51.2566642
    }
  },
  {
    "title": "São João",
    "address": "Rua dos Andradas, 1179 - Centro",
    "phone": "-",
    "schedule": "De seg a sex das 9h às 17h",
    "doses": "2ª dose Pfizer / 1ª dose / Dose de Reforço",
    "coordinate": {
      "latitude": -30.0300743,
      "longitude": -51.2320392
    }
  }
]
